[
    {
        "id": "1041813",
        "name": "Park Hyatt New York",
        "address": "153 West 57th Street",
        "district": "Manhattan",
        "city": "New York City",
        "zipcode": "NY 10019",
        "latitude": 40.7653,
        "longitude": -73.9791,
        "star_rating": 5,
        "review_count": "62",
        "review_word": "Wonderful",
        "review_score": "9.2",
        "photo_url": "http:\/\/r-ec.bstatic.com\/images\/hotel\/square60\/378\/37819434.jpg"
    },
    {
        "id": "28634",
        "name": "Waldorf Astoria New York",
        "address": "301 Park Avenue",
        "district": "Manhattan",
        "city": "New York City",
        "zipcode": "NY 10022",
        "latitude": 40.7567,
        "longitude": -73.9741,
        "star_rating": 4,
        "review_count": "3372",
        "review_word": "Good",
        "review_score": "7.9",
        "photo_url": "http:\/\/r-ec.bstatic.com\/images\/hotel\/square60\/218\/21810702.jpg"
    },
    {
        "id": "25294",
        "name": "New York Marriott Marquis",
        "address": "1535 Broadway",
        "district": "Manhattan",
        "city": "New York City",
        "zipcode": "NY 10036",
        "latitude": 40.7584,
        "longitude": -73.9856,
        "star_rating": 4,
        "review_count": "3127",
        "review_word": "Very good",
        "review_score": "8.1",
        "photo_url": "http:\/\/r-ec.bstatic.com\/images\/hotel\/square60\/437\/43713271.jpg"
    },
    {
        "id": "57391",
        "name": "H\u00f4tel D'Aubusson",
        "address": "33, Rue Dauphine",
        "district": "6th arr.",
        "city": "Paris",
        "zipcode": "75006",
        "latitude": 48.8548,
        "longitude": 2.3395,
        "star_rating": 4,
        "review_count": "628",
        "review_word": "Wonderful",
        "review_score": "9.2",
        "photo_url": "http:\/\/r-ec.bstatic.com\/images\/hotel\/square60\/343\/34305143.jpg"
    },
    {
        "id": "1270894",
        "name": "Maison Souquet",
        "address": "10 rue de Bruxelles",
        "district": "9th arr.",
        "city": "Paris",
        "zipcode": "75009",
        "latitude": 48.8836,
        "longitude": 2.3314,
        "star_rating": 5,
        "review_count": "63",
        "review_word": "Exceptional",
        "review_score": "9.5",
        "photo_url": "http:\/\/r-ec.bstatic.com\/images\/hotel\/square60\/432\/43230707.jpg"
    },
    {
        "id": "26730",
        "name": "Pullman Paris Tour Eiffel",
        "address": "18 Avenue De Suffren, Entr\u00e9e au 22 rue Jean Rey",
        "district": "15th arr.",
        "city": "Paris",
        "zipcode": "75015",
        "latitude": 48.8556,
        "longitude": 2.2926,
        "star_rating": 4,
        "review_count": "1892",
        "review_word": "Excellent",
        "review_score": "8.6",
        "photo_url": "http:\/\/r-ec.bstatic.com\/images\/hotel\/square60\/381\/38196788.jpg"
    },
    {
        "id": "1182999",
        "name": "Ivor House",
        "address": "29 Ivor Place",
        "district": "Westminster",
        "city": "London",
        "zipcode": "NW1 6DA",
        "latitude": 51.5242,
        "longitude": -0.1617,
        "star_rating": 2,
        "review_count": "32",
        "review_word": "Wonderful",
        "review_score": "9.1",
        "photo_url": "http:\/\/r-ec.bstatic.com\/images\/hotel\/square60\/380\/38071342.jpg"
    },
    {
        "id": "200700",
        "name": "Millennium Hotel London Mayfair",
        "address": "44 Grosvenor Square",
        "district": "Mayfair",
        "city": "London",
        "zipcode": "W1K 2HP",
        "latitude": 51.5108,
        "longitude": -0.1511,
        "star_rating": 4,
        "review_count": "1954",
        "review_word": "Good",
        "review_score": "7.9",
        "photo_url": "http:\/\/r-ec.bstatic.com\/images\/hotel\/square60\/391\/39106732.jpg"
    },
    {
        "id": "230884",
        "name": "Royal Garden Hotel",
        "address": "2-24 Kensington High St",
        "district": "Kensington",
        "city": "London",
        "zipcode": "W8 4PT",
        "latitude": 51.5027,
        "longitude": -0.1882,
        "star_rating": 5,
        "review_count": "1418",
        "review_word": "Excellent",
        "review_score": "8.6",
        "photo_url": "http:\/\/r-ec.bstatic.com\/images\/hotel\/square60\/120\/12084217.jpg"
    },
    {
        "id": "10098",
        "name": "Best Western Apollo Museumhotel Amsterdam City Centre",
        "address": "P.C. Hooftstraat 2",
        "district": "Oud Zuid",
        "city": "Amsterdam",
        "zipcode": "1071 BX",
        "latitude": 52.3613,
        "longitude": 4.8842,
        "star_rating": 3,
        "review_count": "2268",
        "review_word": "Good",
        "review_score": "7.3",
        "photo_url": "http:\/\/r-ec.bstatic.com\/images\/hotel\/square60\/478\/47892329.jpg"
    },
    {
        "id": "591806",
        "name": "art'otel Amsterdam",
        "address": "Prins Hendrikkade 33",
        "district": "Amsterdam City Center",
        "city": "Amsterdam",
        "zipcode": "1012 TM",
        "latitude": 52.3777,
        "longitude": 4.8972,
        "star_rating": 5,
        "review_count": "1803",
        "review_word": "Wonderful",
        "review_score": "9.0",
        "photo_url": "http:\/\/r-ec.bstatic.com\/images\/hotel\/square60\/221\/22153666.jpg"
    },
    {
        "id": "1014256",
        "name": "Waldorf Astoria Amsterdam",
        "address": "Herengracht 542-556",
        "district": "Amsterdam City Center",
        "city": "Amsterdam",
        "zipcode": "1017 CG",
        "latitude": 52.3646,
        "longitude": 4.8964,
        "star_rating": 5,
        "review_count": "347",
        "review_word": "Wonderful",
        "review_score": "9.3",
        "photo_url": "http:\/\/r-ec.bstatic.com\/images\/hotel\/square60\/300\/30065400.jpg"
    }
]